[{"neighboursIds":[],"centerLocation":{"lon":18.228099825652382,"lat":49.80592656331801},"name":"okres Ostrava-město","id":"CZ0806"},{"neighboursIds":[],"centerLocation":{"lon":18.003352629085537,"lat":49.65108667284388},"name":"okres Nový Jičín","id":"CZ0804"},{"neighboursIds":[],"centerLocation":{"lon":17.460397637280394,"lat":50.04196870899162},"name":"okres Bruntál","id":"CZ0801"},{"neighboursIds":[],"centerLocation":{"lon":18.477440099670147,"lat":49.82848733597221},"name":"okres Karviná","id":"CZ0803"},{"neighboursIds":[],"centerLocation":{"lon":18.49744943782934,"lat":49.59527165764439},"name":"okres Frýdek-Místek","id":"CZ0802"},{"neighboursIds":[],"centerLocation":{"lon":17.887092151200733,"lat":49.892938551252925},"name":"okres Opava","id":"CZ0805"}]